stop_id,stop_code,stop_name,stop_desc,stop_lat,stop_lon,zone_id,stop_url,location_type,parent_station
1,475P,Aouinet,,33.98551904,10.0036881,,,0,
2,481Y,Ghannouch,,33.92158585,10.07692438,,,0,
3,488F,Gabes,,33.88422466,10.09919458,,,0,
4,472L,Skhira,,34.30043182,10.06885059,,,0,
5,464C,Chaal,,34.5164299,10.3442373,,,0,
6,463B,Mahares,,34.52626256,10.49869317,,,0,
7,462A,Gargour,,34.57281196,10.57788205,,,0,
8,461Z,Sidi Abid,,34.69544765,10.70230586,,,0,
9,450K,Sfax,,34.73515066,10.76712362,,,0,
10,215F,Sakiet Ezzit,,34.80071603,10.76127026,,,0,
11,216G,Sidi Salah,,34.85801931,10.76734343,,,0,
12,214E,Dokhane,,34.99094247,10.76088592,,,0,
13,212C,La Hencha,,35.13746137,10.72839878,,,0,
14,204S,El Jem,,35.29256581,10.70958015,,,0,
15,202P,Kerker,,35.46827613,10.65970431,,,0,
16,201N,Sidi Bou Goubrine,,35.59387729,10.62871816,,,0,
17,183S,Kalaa Kebira,,35.86784303,10.55341541,,,0,
18,182R,Sidi Bou Ali,,35.95315445,10.45133325,,,0,
19,181P,Menzel Gare,,36.01052907,10.37754499,,,0,
20,174G,Enfida,,36.13073109,10.38363977,,,0,
21,173F,Ain Rahma,,36.2263937,10.42694944,,,0,
22,172E,Bouficha,,36.30330242,10.45122202,,,0,
23,171D,Sidi Mtir,,36.38695847,10.50296362,,,0,
24,166Y,Bou Arkoub,,36.53107528,10.55141793,,,0,
25,165X,Belli,,36.56060928,10.52496504,,,0,
26,164W,Turki,,36.57550041,10.51353227,,,0,
27,163T,Grombalia,,36.59634435,10.49772187,,,0,
28,161R,Fondouk Jedid,,36.66891685,10.44671329,,,0,
43,192D,Sousse Marchandise,,35.77792989,10.57723653,,,0,
44,Friguia,Parc Friguia,,36.20433739,10.41933785,,,0,
45,152F,Ezzahra Lycée,,36.7390405,10.31796465,,,0,
46, ,M'seken Messadine,,35.75495656,10.59092182,,,0,
47,687S,Ksar Mezouar,,36.91539991,9.45804252,,,0,
48,685P,Sidi Nsir,,36.96153411,9.52456422,,,0,
49,684N,Mettarcheni,,37.00122746,9.60087569,,,0,
50,682L,El Arima,,37.02165043,9.63886242,,,0,
51,465D,Ghraiba,,34.49965896,10.2137336,,,0,
52,493L,Mezzouna,,34.57396917,9.84183355,,,0,
53,494M,El Kerma,,34.63121053,9.74876577,,,0,
54,495N,Maknassy,,34.60669309,9.60643853,,,0,
55,501X,Menzel Bouzaiane,,34.57594818,9.45800047,,,0,
56,502Y,Sened,,34.5380285,9.25351221,,,0,
57,504A,Zannouch,,34.46862761,9.05222719,,,0,
58,505B,Oued El Ksab (23/24),,34.45057735,8.95669273,,,0,
59,520T,Cheria,,34.34078748,8.60608406,,,0,
60,521W,Mg 28/29,,34.32037192,8.50945513,,,0,
61,551F,Le Kriz,,34.03312354,8.24303992,,,0,
62,552G,Degueche,,33.98685649,8.21327222,,,0,
63,553H,Tozeur,,33.92655473,8.13578075,,,0,
64,510G,Gafsa,,34.39470914,8.80389733,,,0,
65,561S,El Guetar,,34.3301217,8.94962543,,,0,
66,562T,Mg N1,,34.22520071,9.16668193,,,0,
67,564X,Segui,,34.17423301,9.40562877,,,0,
68,435S,El Fejij,,34.06585616,9.73624944,,,0,
69,567A,Mg N4,,34.01121828,9.84561165,,,0,
70,522X,Metlaoui,,34.31577658,8.41642525,,,0,
71,532H,Selja,,34.38534241,8.33995409,,,0,
72,537N,Om El Arais,,34.48706256,8.27735654,,,0,
73,444D,Maagen Bel Abbes,,34.75008642,8.51951948,,,0,
74,443C,Feriana,,34.94917959,8.56814854,,,0,
75,442B,Thelepte,,34.97653881,8.59622148,,,0,
76,441A,Mekdoudech,,35.08382132,8.72660467,,,0,
77,674C,Mateur,,37.03788837,9.68449089,,,0,
78,681K,Mateur Sud,,37.03674934,9.66227658,,,0,
79,721H,Ghezala,,37.06469141,9.60216291,,,0,
80,722J,Jalta,,37.07403935,9.53473616,,,0,
81,723K,Jefna,,37.04267921,9.44176643,,,0,
82,726N,Sedjnane,,37.05137645,9.27648306,,,0,
83,727P,El Harrech,,37.05967718,9.22071916,,,0,
84,729S,Tamera,,37.05582252,9.11959769,,,0,
85,401C,Les Salines,,36.07777438,8.96401745,,,0,
86,403E,Zaafrane,,36.15305228,8.88814483,,,0,
87,404F,Le Kef,,36.16673292,8.70368159,,,0,
88,130E,Djebal Jelloud,,36.77272513,10.2082258,,,0,
89,311W,Bir Kassa,,36.74107512,10.22850758,,,0,
90,312X,Nassen,,36.70357559,10.23280405,,,0,
91,313Y,Khledia,,36.64614243,10.19449038,,,0,
92,314Z,Oudna,,36.62535991,10.15112011,,,0,
93,316B,Cheylus,,36.55541907,10.06085561,,,0,
94,317C,Bir M'Cherga,,36.50621051,10.02188307,,,0,
95,321G,Depienne,,36.4572093,10.0235804,,,0,
96,322H,El Ouja,,36.4179661,9.98237806,,,0,
97,323J,Pont Du Fahs,,36.37667594,9.9024049,,,0,
98,331T,Thibica,,36.3560495,9.80925491,,,0,
99,332W,Tarf Echena,,36.35527395,9.71737389,,,0,
100,333X,Bou Arada,,36.35646264,9.62690259,,,0,
101,334Y,Jelida,,36.37168897,9.5563711,,,0,
102,335Z,El Aroussa,,36.38115848,9.45455639,,,0,
103,336A,Sidi Ayed,,36.35121247,9.39091717,,,0,
104,340E,Gaafour,,36.32265545,9.32659756,,,0,
105,351S,El Akhouat,,36.25508993,9.25495605,,,0,
106,352T,Le Krib,,36.25349785,9.18513063,,,0,
107,353W,Sidi Bou Rouis,,36.17532219,9.12509411,,,0,
108,354X,Trika,,36.13245212,9.11290852,,,0,
109,355Y,Le Sers,,36.0759795,9.02323349,,,0,
110,361E,Oued Tessa,,36.06726428,8.93625877,,,0,
111,362F,Les Zouarines,,36.04035383,8.91408379,,,0,
112,363G,Dahmani,,35.94517744,8.82870401,,,0,
113,364H,Ain Mesria,,35.91218549,8.7393168,,,0,
114,411N,Fej Etameur,,35.87816472,8.70780693,,,0,
115,372S,Oued Sarrath,,35.76635461,8.61861496,,,0,
116,373T,Kalaa Khasba,,35.66367279,8.59225524,,,0,
117,381D,Haidra,,35.56602116,8.44823772,,,0,
118,382E,Foussana,,35.3492711,8.62501112,,,0,
119,386J,Voie Ballastiere- El hrich,,35.24071716,8.74773774,,,0,
120,221M,Bir Bourekba,,36.4306822,10.57374512,,,0,
121,222N,Hammamet,,36.40764041,10.61245796,,,0,
122,223P,Omar Khayem,,36.42396851,10.66892545,,,0,
123,226T,M'Razka,,36.42924006,10.68475547,,,0,
124,224R,Nabeul Voyageurs,,36.45103216,10.73510445,,,0,
125,251Z,M'Saken,,35.7288961,10.60003267,,,0,
126,252A,Jemmal,,35.62861106,10.75759717,,,0,
127,253B,Moknine Marchandises,,35.62791331,10.89508299,,,0,
128,491J,Founi,,34.51622276,10.04313763,,,0,
129,471K,Hamada,,34.37870022,10.11725096,,,0,
130,695C,Beau Sejour,,37.15142298,9.79338412,,,0,
131,693A,Menzel Bourguiba,,37.13978232,9.80309944,,,0,
132,157L,Borj Cedria,,36.70348221,10.39742907,,,0,
133,160P,Erriadh,,36.69827887,10.42151708,,,0,
134,300G,La Goulette,,36.80668461,10.29095775,,,0,
135,541T,Aguila,,34.37963342,8.76840129,,,0,
136,542W,M'Dhilla,,34.2919887,8.72436,,,0,
137,543X,Sehib,,34.23695207,8.64682103,,,0,
138,535L,Tabeddit,,34.43649562,8.25932994,,,0,
139,536M,Redeyef,,34.38800844,8.1524871,,,0,
140,390N,Kasserine,,35.16740157,8.83470423,,,0,
141,432N,Sbeitla,,35.22759492,9.12811166,,,0,
142,434R,Zerzour,,35.24909178,9.3036993,,,0,
143,436T,Jilma,,35.27414411,9.42176497,,,0,
144,437W,Hajeb El Aioun,,35.36814098,9.57101274,,,0,
145,428J,Sidi Saad,,35.39127671,9.76072523,,,0,
146,371R,Gouraia,,35.85843977,8.68462775,,,0,
147,414S,Jerissa PV,,35.85025009,8.65280733,,,0,
148,415T,Tajerouine,,35.8519636,8.54596353,,,0,
149,267S,Mahdia,,35.50077491,11.06427159,,,0,
150,268T,Mahdia Ezzahra,,35.50004285,11.04831801,,,0,
151,266R,Borj Arif,,35.50619251,11.03036324,,,0,
152,271Y,Sidi Masaoud,,35.52107205,11.02721343,,,0,
153,MahZT,Mahdia ZT,,35.53690973,11.02740904,,,0,
154,264N,Baghdedi,,35.56953177,11.0184244,,,0,
155,263M,Charaf,,35.59488298,11.0098213,,,0,
156,262L,Bekalta,,35.615241,10.98936452,,,0,
157,261K,Teboulba,,35.63771689,10.96163178,,,0,
158,270X,Teboulba Zi,,35.63374675,10.94349548,,,0,
159,260J,Moknine Voyageurs,,35.63128285,10.91560693,,,0,
160,249X,Moknine Griba,,35.63799717,10.90690937,,,0,
161,248W,Ksar Helal,,35.64514422,10.90091172,,,0,
162,247T,Ksar Helal Zi,,35.65192285,10.8986172,,,0,
163,246S,Sayeda,,35.66606349,10.88817958,,,0,
164,245R,Lamta,,35.67019075,10.88283518,,,0,
165,244P,Bouhjar,,35.67235048,10.86763039,,,0,
166,243N,Ksiba Bennane,,35.68004136,10.8426818,,,0,
167,242M,Khnis/Bembla,,35.70904477,10.81243414,,,0,
168,254C,Frina,,35.73067056,10.81269737,,,0,
169,241L,Monastir Zi,,35.74018355,10.82040157,,,0,
170,272Z,La Faculte 2,,35.76131954,10.80932195,,,0,
171,238H,Monastir,,35.77062632,10.82529066,,,0,
172,231A,Sousse Bab Jdid,,35.823063,10.64159279,,,0,
173,232B,Sousse Mohamed V,,35.81599388,10.64324748,,,0,
174,233C,Sousse Sud,,35.80017296,10.64992398,,,0,
175,234D,Sousse Zi,,35.7821012,10.66837618,,,0,
176,235E,Sahline Ville,,35.75957863,10.70145588,,,0,
177,236F,Sahline Sebkha,,35.7576841,10.71653661,,,0,
178,239J,Les Hotels Monastir,,35.7601219,10.74489186,,,0,
179,237G,Aeroport Skanes Monastir,,35.76251566,10.75409804,,,0,
180, 230Z,Skanes,,35.76806581,10.78823238,,,0,
181,240K,La Faculte,,35.75961668,10.80735965,,,0,
182,193E,Sousse Voyageurs,,35.83042462,10.63805168,,,0,
183,191C,Kalaa Sghira,,35.82201389,10.57111821,,,0,
184,Aig.L12,Aig L12,,35.8217595,10.57564932,,,0,
185,623R,Borj Ettoum,,36.78765992,9.76155658,,,0,
186,625T,Mejez El Bab,,36.66572529,9.60651055,,,0,
187,631B,Sidi M'Himech,,36.78254734,9.27930806,,,0,
188,632C,Beja Marchandises,,36.73879422,9.18985756,,,0,
189,633D,Beja Voy,,36.72486817,9.1901878,,,0,
190,635F,Mastouta,,36.66161266,9.20907893,,,0,
191,661L,Sidi Smail,,36.59551755,9.11189895,,,0,
192,642N,Bou Salem,,36.61123811,8.96887978,,,0,
193,645S,Jendouba V,,36.50123609,8.77725543,,,0,
194,652B,Oued Meliz,,36.46961658,8.55133481,,,0,
195,657G,Ghardimaou,,36.44776829,8.43720421,,,0,
196,605W,Oued Ellil,,36.83583973,10.00910677,,,0,
197,612D,Mannouba,,36.81612972,10.10110789,,,0,
198,611C,Le Bardo,,36.81117303,10.11813918,,,0,
199,602R,Cité Erraoudha,,36.80625968,10.13921177,,,0,
200,Aig0730,Aiguille 0+730,,36.78707884,10.17716703,,,0,
201,643P,Benbachir,,36.59181891,8.905504,,,0,
202,120S,Tunis Ville,,36.79476927,10.18038057,,,0,
203,621N,Tebourba,,36.82916026,9.84436545,,,0,
204,624S,El Heri,,36.74198558,9.70168539,,,0,
205,627X,Oued Zarga,,36.67325366,9.42664993,,,0,
206,614F,Jedeida,,36.85079747,9.93345127,,,0,
207,671Z,Chaouat,,36.88948144,9.94447096,,,0,
208,672A,Sidi Othman,,36.96003895,9.92471303,,,0,
209,673B,Ain Ghelal,,37.02336071,9.83278994,,,0,
210,691Y,Ichkeul,,37.11492152,9.72926433,,,0,
211,692Z,Tinja,,37.15949621,9.75721346,,,0,
212,703L,La Pecherie,,37.25412318,9.83940251,,,0,
213,710W,Bizerte,,37.266437,9.86390027,,,0,
214,191C,kalaa Sghira,,35.82166731,10.57084812,,,0,
215,BAN,Bir Aniba,,36.79537885,10.157609,,,0,
216,1003,Aig-SS-L22,,35.78224699,10.66197462,,,0,
615,533J,El Ayoun,,34.42796706,8.28938433,,,0,
616,531G,Magroun,,34.3330461,8.39444109,,,0,
618,225S,Nabeul PV,,36.43218758,10.69396533,,,0,
619,162S,Khanguet,,36.62483116,10.46134734,,,0,
1015,402D,Lorbeuss,,36.10093705,8.93444309,,,0,
